{
"title": "WICHTIGE KONTAKTE UND ADRESSEN DER POLIZEI",
"subtitle":"Achtung! In allen dringenden Angelegenheiten ist der Notruf zu wählen:",

    "police":[
        {
            "id": 1,
            "name": "Städtische Polizeidirektion",
            "address": "ul. Sołtysowicka 21",
            "postalCode": "51-168",
            "city": "Wrocław",
            "number": "+48 47 87 144 90",
            "email": "kontakt@wroclaw.wr.policja.gov.pl",
            "coordinates": {
                "longitude": 17.070855,
                "latitude": 51.141588
            },
            "imageName": "policja_soltysowicka"
        },
        {
            "id": 2,
            "name": "Abteilung für Straßenverkehr",
            "address": "ul. Hubska 29/33",
            "postalCode": "50-501",
            "city": "Wrocław",
            "number": "+48 47 87 132 12;+48 47 87 139 22",
            "coordinates": {
                "longitude": 17.042646,
                "latitude": 51.093346
            },
            "imageName": "policja_hubska"
        },
        {
            "id": 3,
            "name": "Polizeirevier Wrocław - Stare Miasto",
            "address": "ul. Trzemeska 12",
            "postalCode": "50-040",
            "city": "Wrocław",
            "number": "+48 47 87 131 31",
            "coordinates": {
                "longitude": 17.010767,
                "latitude": 51.112300
            },
            "imageName": "policja_stare_miasto"
        },
        {
            "id": 4,
            "name": "Polizeirevier Wrocław - Ołbin",
            "address": "ul. Rydygiera 46 /48",
            "postalCode": "50-249",
            "city": "Wrocław",
            "number": "+48 47 87 143 06",
            "coordinates": {
                "longitude":17.032310,
                "latitude": 51.121025
            },
            "imageName": "policja_olbin"
        },
        {
            "id": 5,
            "name": "Polizeirevier Wrocław - Śródmieście",
            "address": "ul. Grunwaldzka 6",
            "postalCode": "50-355",
            "city": "Wrocław",
            "number": "+48 47 87 143 58",
            "coordinates": {
                "longitude": 17.055712,
                "latitude": 51.115019
            },
            "imageName": "policja_srodmiescie"
        },
        {
            "id": 6,
            "name": "Polizeirevier Wrocław - Krzyki",
            "address": "ul. Slężna 115-129",
            "postalCode": "53-123",
            "city": "Wrocław",
            "number": "+48 47 87 116 00",
            "coordinates": {
                "longitude": 17.025356,
                "latitude": 51.085191
            },
            "imageName": "policja_krzyki"
        },
        {
            "id": 7,
            "name": "Polizeirevier Wrocław - Rakowiec",
            "address": "ul. Traugutta 94",
            "postalCode": "50-420",
            "city": "Wrocław",
            "number": "+48 47 87 143 44",
            "coordinates": {
                "longitude": 17.052681,
                "latitude": 51.101520
            },
            "imageName": "policja_rakowiec"
        },
        {
            "id": 8,
            "name": "Polizeirevier Wrocław - Fabryczna",
            "address": "ul. Połbina 1",
            "postalCode": "54-151",
            "city": "Wrocław",
            "number": "+48 47 87 143 80",
            "coordinates": {
                "longitude": 16.973718,
                "latitude": 51.140234
            },
            "imageName": "policja_fabryczna"
        },
        {
            "id": 9,
            "name": "Polizeirevier Wrocław - Leśnica",
            "address": "ul. Sredzka 42",
            "postalCode": "54-055",
            "city": "Wrocław",
            "number": "+48 47 87 128 50",
            "coordinates": {
                "longitude": 16.863231,
                "latitude": 51.146585
            },
            "imageName": "policja_lesnica"
        },
        {
            "id": 10,
            "name": "Polizeirevier Wrocław - Grabiszynek",
            "address": "ul. Grabiszyńska 255",
            "postalCode": "53-234",
            "city": "Wrocław",
            "number": "+48 47 87 141 04",
            "coordinates": {
                "longitude": 16.983154,
                "latitude": 51.095593
            },
            "imageName": "policja_grabiszynek"
        },
        {
           "id": 11,
           "name": "Polizeirevier Wrocław - Psie Pole",
           "address": "pl. Piłsudskiego 6/8",
           "postalCode": "51-152",
           "city": "Wrocław",
           "number": "+48 47 87 146 05",
           "coordinates": {
               "longitude": 17.056761,
               "latitude": 51.137445
           },
           "imageName": "policja_psie_pole"
        },
        {
           "id": 12,
           "name": "Polizeirevier Wrocław - Osiedle",
           "address": "ul. Kiełczowska 15",
           "postalCode": "51-315",
           "city": "Wrocław",
           "number": "+48 47 87 128 20",
           "coordinates": {
               "longitude": 17.117308,
               "latitude": 51.146688
           },
           "imageName": "policja_osiedle"
        },
        {
           "id": 13,
           "name": "Revier der Wasserschutzpolizei ",
           "address": "ul. Wybrzeże Wyspiańskiego 39 b",
           "postalCode": "50-370",
           "city": "Wrocław",
           "number": "+48 47 87 127 00",
           "coordinates": {
               "longitude": 17.065012,
               "latitude": 51.106096
           },
           "imageName": "policja_wodna"
        },
        {
          "id": 14,
          "name": "Revier der Bahnschutzpolizei ",
          "address": "ul. Piłsudskiego 105",
          "postalCode": "50-085",
          "city": "Wrocław",
          "number": "+48 47 87 114 20",
          "coordinates": {
              "longitude": 17.036570,
              "latitude": 51.098803
          },
          "imageName": "policja_pkp"
       },
         {
           "id": 15,
           "name": "Polizeirevier in Długołęka",
           "address": "ul. Wrocławska 24 ",
           "postalCode": "55-095",
           "city": "Długołęka",
           "number": "+48 47 87 165 20",
           "coordinates": {
               "longitude": 17.184659,
               "latitude": 51.177753
           },
           "imageName": "policja_dlugoleka"
        },
         {
            "id": 16,
            "name": "Polizeirevier in Sobótka",
            "address": "ul. Ogrodowa 8/10",
            "postalCode": "55-050",
            "city": "Sobótka",
            "number": "+48 47 87 163 20",
            "coordinates": {
                "longitude": 16.747308,
                "latitude": 50.900539
            },
            "imageName": "policja_sobotka"
         },
         {
            "id": 17,
            "name": "Polizeirevier in  Kąty Wrocławskie",
            "address": "ul.1-go Maja 16",
            "postalCode": "55-080",
            "city": "Kąty Wrocławskie",
            "number": "+48 47 87 167 20",
            "coordinates": {
                "longitude": 16.765961,
                "latitude": 51.031487
            },
            "imageName": "policja_katy_wroclawskie"
         },
         {
            "id": 18,
            "name": "Polizeirevier in Siechnice",
            "address": "ul. Jana Pawła II 12",
            "postalCode": "55-011",
            "city": "Siechnice",
            "number": "+48 47 87 168 62;+48 47 87 116 00",
            "coordinates": {
                "longitude": 17.151008,
                "latitude": 51.032614
            },
            "imageName": "policja_siechnice"
         }
    ]
}
